timestamp	TimeUS	ATT_DesRoll	ATT_Roll	ATT_DesPitch	ATT_Pitch	ATT_DesYaw	ATT_Yaw	ATT_ErrRP	ATT_ErrYaw	BARO_Alt	BARO_Press	BARO_Temp	BARO_CRt	BARO_SMS	BARO_Offset	BARO_GndTemp	BARO_Health	BAT_Volt	BAT_VoltR	BAT_Curr	BAT_CurrTot	BAT_EnrgTot	BAT_Temp	BAT_Res	CTUN_ThI	CTUN_ABst	CTUN_ThO	CTUN_ThH	CTUN_DAlt	CTUN_Alt	CTUN_BAlt	CTUN_DSAlt	CTUN_SAlt	CTUN_TAlt	CTUN_DCRt	CTUN_CRt	MAG_MagX	MAG_MagY	MAG_MagZ	MAG_OfsX	MAG_OfsY	MAG_OfsZ	MAG_MOfsX	MAG_MOfsY	MAG_MOfsZ	MAG_Health	MAG_S	MAG2_MagX	MAG2_MagY	MAG2_MagZ	MAG2_OfsX	MAG2_OfsY	MAG2_OfsZ	MAG2_MOfsX	MAG2_MOfsY	MAG2_MOfsZ	MAG2_Health	MAG2_S	MAG3_MagX	MAG3_MagY	MAG3_MagZ	MAG3_OfsX	MAG3_OfsY	MAG3_OfsZ	MAG3_MOfsX	MAG3_MOfsY	MAG3_MOfsZ	MAG3_Health	MAG3_S	NKF1_Roll	NKF1_Pitch	NKF1_Yaw	NKF1_VN	NKF1_VE	NKF1_VD	NKF1_dPD	NKF1_PN	NKF1_PE	NKF1_PD	NKF1_GX	NKF1_GY	NKF1_GZ	NKF1_OH	NKF2_AZbias	NKF2_GSX	NKF2_GSY	NKF2_GSZ	NKF2_VWN	NKF2_VWE	NKF2_MN	NKF2_ME	NKF2_MD	NKF2_MX	NKF2_MY	NKF2_MZ	NKF2_MI	NKF3_IVN	NKF3_IVE	NKF3_IVD	NKF3_IPN	NKF3_IPE	NKF3_IPD	NKF3_IMX	NKF3_IMY	NKF3_IMZ	NKF3_IYAW	NKF3_IVT	NKF4_SV	NKF4_SP	NKF4_SH	NKF4_SM	NKF4_SVT	NKF4_errRP	NKF4_OFN	NKF4_OFE	NKF4_FS	NKF4_TS	NKF4_SS	NKF4_GPS	NKF4_PI	NKF5_NI	NKF5_FIX	NKF5_FIY	NKF5_AFI	NKF5_HAGL	NKF5_offset	NKF5_RI	NKF5_rng	NKF5_Herr	NKF5_eAng	NKF5_eVel	NKF5_ePos	NKF6_Roll	NKF6_Pitch	NKF6_Yaw	NKF6_VN	NKF6_VE	NKF6_VD	NKF6_dPD	NKF6_PN	NKF6_PE	NKF6_PD	NKF6_GX	NKF6_GY	NKF6_GZ	NKF6_OH	NKF7_AZbias	NKF7_GSX	NKF7_GSY	NKF7_GSZ	NKF7_VWN	NKF7_VWE	NKF7_MN	NKF7_ME	NKF7_MD	NKF7_MX	NKF7_MY	NKF7_MZ	NKF7_MI	NKF8_IVN	NKF8_IVE	NKF8_IVD	NKF8_IPN	NKF8_IPE	NKF8_IPD	NKF8_IMX	NKF8_IMY	NKF8_IMZ	NKF8_IYAW	NKF8_IVT	NKF9_SV	NKF9_SP	NKF9_SH	NKF9_SM	NKF9_SVT	NKF9_errRP	NKF9_OFN	NKF9_OFE	NKF9_FS	NKF9_TS	NKF9_SS	NKF9_GPS	NKF9_PI	NKQ1_Q1	NKQ1_Q2	NKQ1_Q3	NKQ1_Q4	NKQ2_Q1	NKQ2_Q2	NKQ2_Q3	NKQ2_Q4	RATE_RDes	RATE_R	RATE_ROut	RATE_PDes	RATE_P	RATE_POut	RATE_YDes	RATE_Y	RATE_YOut	RATE_ADes	RATE_A	RATE_AOut	IMU_GyrX	IMU_GyrY	IMU_GyrZ	IMU_AccX	IMU_AccY	IMU_AccZ	IMU_EG	IMU_EA	IMU_T	IMU_GH	IMU_AH	IMU_GHz	IMU_AHz	AHR2_Roll	AHR2_Pitch	AHR2_Yaw	AHR2_Alt	AHR2_Lat	AHR2_Lng	AHR2_Q1	AHR2_Q2	AHR2_Q3	AHR2_Q4	CTRL_RMSRollP	CTRL_RMSRollD	CTRL_RMSPitchP	CTRL_RMSPitchD	CTRL_RMSYaw	GPA_VDop	GPA_HAcc	GPA_VAcc	GPA_SAcc	GPA_VV	GPA_SMS	GPA_Delta	GPS_Status	GPS_GMS	GPS_GWk	GPS_NSats	GPS_HDop	GPS_Lat	GPS_Lng	GPS_Alt	GPS_Spd	GPS_GCrs	GPS_VZ	GPS_Yaw	GPS_U	POS_Lat	POS_Lng	POS_Alt	POS_RelHomeAlt	POS_RelOriginAlt	PSC_TPX	PSC_TPY	PSC_PX	PSC_PY	PSC_TVX	PSC_TVY	PSC_VX	PSC_VY	PSC_TAX	PSC_TAY	PSC_AX	PSC_AY	RCIN_C1	RCIN_C2	RCIN_C3	RCIN_C4	RCIN_C5	RCIN_C6	RCIN_C7	RCIN_C8	RCIN_C9	RCIN_C10	RCIN_C11	RCIN_C12	RCIN_C13	RCIN_C14	RCOU_C1	RCOU_C2	RCOU_C3	RCOU_C4	RCOU_C5	RCOU_C6	RCOU_C7	RCOU_C8	RCOU_C9	RCOU_C10	RCOU_C11	RCOU_C12	RCOU_C13	RCOU_C14	SIM_Roll	SIM_Pitch	SIM_Yaw	SIM_Alt	SIM_Lat	SIM_Lng	SIM_Q1	SIM_Q2	SIM_Q3	SIM_Q4	VIBE_VibeX	VIBE_VibeY	VIBE_VibeZ	VIBE_Clip0	VIBE_Clip1	VIBE_Clip2
1617984138.6	62228432	0.0	0.11	0.0	0.09	352.94	352.95	0.0	0.0	0.0	94502.796875	33.74	0.0	62228	0.0	25.5348320007	1	12.5879774094	12.5879774094	0.0	0.0	0.0	0.0	0.0	-7.48932361603e-05	-2.47382558882e-10	0.0	0.344210416079	0.00125790503807	0.00125790503807	0.0		0.0	0.00125790503807	0	0	215	73	-538	5	13	-18	0	0	0	1	62228432	215	73	-538	5	13	-18	0	0	0	1	62228432	215	73	-538	5	13	-18	0	0	0	1	62228432	0.11	0.09	352.94	-0.0252773854882	0.0330907851458	-0.000543505244423	0.0	-0.0229563657194	0.0298755448312	-0.00125790503807	0.02	0.02	0.02	584.01	-1	0.0	0.0	0.0	0.0	0.0	222	46	-538	0	0	0	0	-0.02	0.02	0.0	-0.01	0.02	0.0	0	0	0	0.22	0.0	0.0	0.0	0.0	0.0	0.0	0.000110118395241	0	0	0	16	43839	0	0	0	0	0	0	0.17	0.17	0.0	0.0	0.5	0.00033231973066	0.000348910165485	0.000499156129081	0.11	0.09	352.94	-0.0254024062306	0.0329075455666	-0.00109525024891	0.0	-0.0227710194886	0.0295081790537	-0.00254476373084	0.02	0.02	0.03	584.09	-1	0.0	0.0	0.0	0.0	0.0	222	46	-538	0	0	0	0	-0.02	0.02	0.0	-0.01	0.02	0.0	0	0	0	0.22	0.0	0.0	0.0	0.0	0.0	0.0	0.000109361673822	0	0	0	16	43839	0	0	0.998102545738	0.00102558173239	0.000772072526161	-0.0615601353347	0.998103439808	0.00101767282467	0.000776967906859	-0.061547100544	-0.501938521862	0.0166974943131	-0.00118936889339	-0.429087013006	0.0237375311553	-0.0010642700363	0.000400667719077	0.0204056482762	-6.7619861511e-05	0.0	0.149726867676	0.0	0.000896690820809	0.00080147589324	0.000816680025309	-0.00150411762297	-7.64400319895e-05	-9.81782531738	0	0	0.0	1	1	999	999	0.1	0.09	352.64	584.010009766	-35.3632621	149.1652374	0.997941374779	0.00100055837538	0.000761952833273	-0.0641209408641	0.00124980718829	2.02211504075e-05	0.00106884643901	1.95921311388e-05	6.9760477345e-05	2.0	0.2	0.2	0.04	1.0	62177.0	200.0	6.0	489756600.0	2152.0	10.0	1.21	-35.3632621	149.1652374	584.09	0.0	0.0	0.0	0.0	1.0	-35.3632623	149.1652377	584.010009766	0.00125790503807	0.00125790503807	-0.0441145785153	0.0567106045783	-0.0229563657194	0.0298755448312	0.0	0.0	-0.0252773854882	0.0330907851458	-0.0127528058365	0.0193268898875	-0.0138759193942	0.0210091434419	1500.0	1500.0	1000.0	1500.0	1800.0	1000.0	1000.0	1800.0	0.0	0.0	0.0	0.0	0.0	0.0	1000.0	1000.0	1000.0	1000.0	0.0	0.0	0.0	0.0	0.0	0.0	0.0	0.0	0.0	0.0	0.0	0.0	353.0	584.090026855	-35.3632621	149.1652374	0.998134791851	0.0	0.0	-0.0610485821962	0.00579849258065	0.0055171395652	0.00563992979005	0.0	0.0	0.0
1617984138.69996	62328392	0.0	0.11	0.0	0.09	352.94	352.95	0.0	0.0	0.0	94502.796875	33.75	0.0	62328	0.0	25.5348320007	1	12.5879774094	12.5879774094	0.0	0.0	0.0	0.0	0.0	2.55107879639e-05	8.54925019667e-11	2.65261987806e-05	0.344210416079	0.00127001712099	0.00127001712099	0.0		0.0	0.0012700172374	0	0	215	73	-538	5	13	-18	0	0	0	1	62328392	215	73	-538	5	13	-18	0	0	0	1	62328392	215	73	-538	5	13	-18	0	0	0	1	62328392	0.11	0.09	352.94	-0.0253427810967	0.0332449749112	-0.000494214589708	0.0	-0.0231350436807	0.0301309600472	-0.0012700172374	0.02	0.02	0.02	584.01	-1	0.0	0.0	0.0	0.0	0.0	222	46	-538	0	0	0	0	-0.02	0.02	0.0	-0.01	0.02	0.0	0	0	0	0.21	0.0	0.0	0.0	0.0	0.0	0.0	0.000110210770799	0	0	0	16	43839	0	0	0	0	0	0	0.17	0.17	0.0	0.0	0.5	0.000383260194212	0.00201850058511	0.00330250593834	0.11	0.09	352.94	-0.0256128143519	0.0330922827125	-0.00119645346422	0.0	-0.0229839645326	0.029768159613	-0.00257333391346	0.02	0.02	0.03	584.09	-1	0.0	0.0	0.0	0.0	0.0	222	46	-538	0	0	0	0	-0.02	0.02	0.0	-0.01	0.02	0.0	0	0	0	0.21	0.0	0.0	0.0	0.0	0.0	0.0	0.000109524662548	0	0	0	16	43839	0	0	0.998102724552	0.00102511164732	0.000772142375354	-0.0615571327507	0.998103678226	0.00102278846316	0.000778350105975	-0.0615422613919	-0.501833260059	0.0235115289688	-0.00125834101345	-0.429210454226	0.0239038746804	-0.00105961412191	0.000421799457399	0.0242291837931	-6.70875379001e-05	0.0	-0.0508308410645	2.65261987806e-05	0.000822361500468	0.000850350130349	0.000898104975931	0.000199342073756	-0.00147243053652	-9.81684017181	0	0	0.0	1	1	999	999	0.1	0.09	352.64	584.010009766	-35.3632621	149.1652374	0.997941255569	0.00100030656904	0.000760153867304	-0.064121901989	0.00124595104717	2.14108986256e-05	0.00106638739817	1.93089290406e-05	6.8871275289e-05	2.0	0.2	0.2	0.04	1.0	62277.0	200.0	6.0	489756700.0	2152.0	10.0	1.21	-35.3632621	149.1652374	584.09	0.0	0.0	0.0	0.0	1.0	-35.3632623	149.1652377	584.010009766	0.0012700172374	0.0012700172374	-0.0441145785153	0.0567106045783	-0.0231350436807	0.0301309600472	0.0	0.0	-0.0253427810967	0.0332449749112	-0.0127528058365	0.0193268898875	-0.0138779170811	0.0209999810904	1500.0	1500.0	1000.0	1500.0	1800.0	1000.0	1000.0	1800.0	0.0	0.0	0.0	0.0	0.0	0.0	1000.0	1000.0	1000.0	1000.0	0.0	0.0	0.0	0.0	0.0	0.0	0.0	0.0	0.0	0.0	0.0	0.0	353.0	584.090026855	-35.3632621	149.1652374	0.998134791851	0.0	0.0	-0.0610485821962	0.00602439418435	0.00553246634081	0.00570031069219	0.0	0.0	0.0
1617984138.79992	62428352	0.0	0.11	0.0	0.09	352.94	352.95	0.0	0.0	0.0	94502.796875	33.75	0.0	62428	0.0	25.5348320007	1	12.5879774094	12.5879774094	0.0	0.0	0.0	0.0	0.0	4.28259372711e-05	1.41881173477e-10	6.65766310703e-06	0.344210416079	0.00127810239792	0.00127810239792	0.0		0.0	0.00127810239792	0	0	215	73	-538	5	13	-18	0	0	0	1	62428352	215	73	-538	5	13	-18	0	0	0	1	62428352	215	73	-538	5	13	-18	0	0	0	1	62428352	0.11	0.09	352.94	-0.0253777969629	0.0331976413727	-0.000440021045506	0.0	-0.0230169184506	0.0299902241677	-0.00127810239792	0.02	0.02	0.02	584.01	-1	0.0	0.0	0.0	0.0	0.0	222	46	-538	0	0	0	0	-0.02	0.02	0.0	-0.01	0.02	0.0	0	0	0	0.22	0.0	0.0	0.0	0.0	0.0	0.0	0.000110357446829	0	0	0	16	43839	0	0	0	0	0	0	0.17	0.17	0.0	0.0	0.5	0.000332662486471	0.000357391545549	0.000518322805874	0.11	0.09	352.94	-0.0256180521101	0.0330597348511	-0.00111021939665	0.0	-0.0228985045105	0.0296463295817	-0.00260846177116	0.02	0.02	0.03	584.09	-1	0.0	0.0	0.0	0.0	0.0	222	46	-538	0	0	0	0	-0.02	0.02	0.0	-0.01	0.02	0.0	0	0	0	0.22	0.0	0.0	0.0	0.0	0.0	0.0	0.000109745684313	0	0	0	16	43839	0	0	0.998102843761	0.0010237316601	0.000772397906985	-0.0615554302931	0.99810397625	0.00102319323923	0.000780932256021	-0.0615376085043	-0.501472473145	0.0286465082318	-0.00125925708562	-0.429633587599	0.028309205547	-0.00110738491639	0.000419880758272	0.014367531985	-6.47555716569e-05	0.0	-0.0852584838867	6.65766310703e-06	0.0008911601617	0.000708324485458	0.000779454188887	-0.00142847048119	0.00101620831992	-9.81848144531	0	0	0.0	1	1	999	999	0.1	0.09	352.64	584.010009766	-35.3632621	149.1652374	0.997941195965	0.000999724841677	0.000761212897487	-0.0641236230731	0.00124463113025	1.92297611648e-05	0.00106675736606	1.88865324162e-05	6.8071676651e-05	2.0	0.2	0.2	0.04	1.0	62377.0	200.0	6.0	489756800.0	2152.0	10.0	1.21	-35.3632621	149.1652374	584.09	0.0	0.0	0.0	0.0	1.0	-35.3632623	149.1652377	584.010009766	0.00127810239792	0.00127810239792	-0.0441145785153	0.0567106045783	-0.0230169165879	0.0299902241677	0.0	0.0	-0.0253777969629	0.0331976413727	-0.0127528058365	0.0193268898875	-0.0138846216723	0.0209732521325	1500.0	1500.0	1000.0	1500.0	1800.0	1000.0	1000.0	1800.0	0.0	0.0	0.0	0.0	0.0	0.0	1000.0	1000.0	1000.0	1000.0	0.0	0.0	0.0	0.0	0.0	0.0	0.0	0.0	0.0	0.0	0.0	0.0	353.0	584.090026855	-35.3632621	149.1652374	0.998134791851	0.0	0.0	-0.0610485821962	0.00553682027385	0.00554634816945	0.00558045273647	0.0	0.0	0.0
1617984138.89988	62528312	0.0	0.11	0.0	0.09	352.94	352.95	0.0	0.0	0.0	94502.796875	33.76	0.0	62528	0.0	25.5348320007	1	12.5879774094	12.5879774094	0.0	0.0	0.0	0.0	0.0	-3.73423099518e-05	-1.23691279441e-10	1.78200280061e-05	0.344210416079	0.00128759280778	0.00128759280778	0.0		0.0	0.00128759280778	0	0	215	73	-538	5	13	-18	0	0	0	1	62528312	215	73	-538	5	13	-18	0	0	0	1	62528312	215	73	-538	5	13	-18	0	0	0	1	62528312	0.11	0.09	352.94	-0.0254695285112	0.0333571210504	-0.000419287098339	0.0	-0.02320077084	0.0302410181612	-0.00128759280778	0.02	0.02	0.02	584.01	-1	0.0	0.0	0.0	0.0	0.0	222	46	-538	0	0	0	0	-0.02	0.03	0.0	-0.01	0.02	0.0	0	0	0	0.21	0.0	0.0	0.0	0.0	0.0	0.0	0.00011047336011	0	0	0	16	43839	0	0	0	0	0	0	0.17	0.17	0.0	0.0	0.5	0.000383234204492	0.00201337831095	0.00329498527572	0.11	0.09	352.94	-0.0257243458182	0.0331718027592	-0.00111873878632	0.0	-0.0231153443456	0.0299035888165	-0.00265147117898	0.02	0.02	0.03	584.09	-1	0.0	0.0	0.0	0.0	0.0	222	46	-538	0	0	0	0	-0.02	0.02	0.0	-0.01	0.02	0.0	0	0	0	0.21	0.0	0.0	0.0	0.0	0.0	0.0	0.000109942840936	0	0	0	16	43839	0	0	0.99810308218	0.0010237385286	0.00077305897139	-0.0615519657731	0.998104155064	0.00102448603138	0.000781719281804	-0.0615349300206	-0.50132393837	0.0184146650136	-0.00121348851826	-0.429807543755	0.0184404496104	-0.00105246063322	0.000417959177867	0.0295041874051	-6.48615969112e-05	0.0	0.0746726989746	1.78200280061e-05	0.000734743545763	0.000756294932216	0.000991356442682	-0.00209093908779	-0.000444528472144	-9.81809806824	0	0	0.0	1	1	999	999	0.1	0.09	352.64	584.010009766	-35.3632621	149.1652374	0.997941076756	0.000997809809633	0.000759426970035	-0.0641253069043	0.001243202365	2.00935282919e-05	0.00106688705273	1.72119580384e-05	6.58161879983e-05	2.0	0.2	0.2	0.04	1.0	62477.0	200.0	6.0	489756900.0	2152.0	10.0	1.21	-35.3632621	149.1652374	584.09	0.0	0.0	0.0	0.0	1.0	-35.3632623	149.1652377	584.010009766	0.00128759280778	0.00128759280778	-0.0441145785153	0.0567106045783	-0.02320077084	0.0302410162985	0.0	0.0	-0.0254695285112	0.0333571210504	-0.0127528058365	0.0193268898875	-0.0138976275921	0.0209741406143	1500.0	1500.0	1000.0	1500.0	1800.0	1000.0	1000.0	1800.0	0.0	0.0	0.0	0.0	0.0	0.0	1000.0	1000.0	1000.0	1000.0	0.0	0.0	0.0	0.0	0.0	0.0	0.0	0.0	0.0	0.0	0.0	0.0	353.0	584.090026855	-35.3632621	149.1652374	0.998134791851	0.0	0.0	-0.0610485821962	0.00549285812303	0.00559358578175	0.00536551466212	0.0	0.0	0.0
1617984138.99984	62628272	0.0	0.11	0.0	0.09	352.94	352.95	0.0	0.0	0.0	94502.796875	33.76	0.0	62628	0.0	25.5348320007	1	12.5879774094	12.5879774094	0.0	0.0	0.0	0.0	0.0	-4.48524951935e-05	-1.49157131091e-10	0.0	0.344210416079	0.00130090455059	0.00130090455059	0.0		0.0	0.001300904667	0	0	215	73	-538	5	13	-18	0	0	0	1	62628272	215	73	-538	5	13	-18	0	0	0	1	62628272	215	73	-538	5	13	-18	0	0	0	1	62628272	0.11	0.09	352.94	-0.0254270173609	0.0332198627293	-0.000494931533467	0.0	-0.0230862982571	0.0300961080939	-0.001300904667	0.02	0.02	0.02	584.01	-1	0.0	0.0	0.0	0.0	0.0	222	46	-538	0	0	0	0	-0.02	0.03	0.0	-0.01	0.02	0.0	0	0	0	0.22	0.0	0.0	0.0	0.0	0.0	0.0	0.00011060127872	0	0	0	16	43839	0	0	0	0	0	0	0.17	0.17	0.0	0.0	0.5	0.000332573399646	0.000370155030396	0.000538721040357	0.11	0.09	352.94	-0.0256454013288	0.0330130904913	-0.00114754750393	0.0	-0.0230320394039	0.0297689046711	-0.00269256578758	0.02	0.02	0.03	584.09	-1	0.0	0.0	0.0	0.0	0.0	222	46	-538	0	0	0	0	-0.02	0.02	0.0	-0.01	0.02	0.0	0	0	0	0.22	0.0	0.0	0.0	0.0	0.0	0.0	0.000110215165478	0	0	0	16	43839	0	0	0.998103141785	0.00102258962579	0.000776840839535	-0.0615502670407	0.998104572296	0.00102597440127	0.000782291288488	-0.0615287199616	-0.500067949295	0.028867630288	-0.00124263879843	-0.431272774935	0.031755886972	-0.0010849670507	0.000419878371758	0.020788250491	-6.50896108709e-05	0.0	0.0896453857422	0.0	0.000867239374202	0.000897671969142	0.0009120409959	-0.00234523625113	-0.000286236259853	-9.81810951233	0	0	0.0	1	1	999	999	0.1	0.09	352.64	584.010009766	-35.3632621	149.1652374	0.997941017151	0.000997976167127	0.000761328265071	-0.0641260370612	0.00124190619681	1.9350736693e-05	0.00107112980913	1.78132195288e-05	6.54266405036e-05	2.0	0.2	0.2	0.04	1.0	62577.0	200.0	6.0	489757000.0	2152.0	10.0	1.21	-35.3632621	149.1652374	584.09	0.0	0.0	0.0	0.0	1.0	-35.3632623	149.1652377	584.010009766	0.001300904667	0.001300904667	-0.0441145785153	0.0567106045783	-0.0230862963945	0.0300961080939	0.0	0.0	-0.0254270173609	0.0332198627293	-0.0127528058365	0.0193268898875	-0.0139730833471	0.0209561884403	1500.0	1500.0	1000.0	1500.0	1800.0	1000.0	1000.0	1800.0	0.0	0.0	0.0	0.0	0.0	0.0	1000.0	1000.0	1000.0	1000.0	0.0	0.0	0.0	0.0	0.0	0.0	0.0	0.0	0.0	0.0	0.0	0.0	353.0	584.090026855	-35.3632621	149.1652374	0.998134791851	0.0	0.0	-0.0610485821962	0.00567977922037	0.00573028018698	0.00566433370113	0.0	0.0	0.0
1617984139.0997999	62728232	0.0	0.11	0.0	0.09	352.94	352.95	0.0	0.0	0.0	94502.796875	33.76	0.0	62728	0.0	25.5348320007	1	12.5879774094	12.5879774094	0.0	0.0	0.0	0.0	0.0	-2.80737876892e-05	-9.45874489844e-11	2.15243574075e-07	0.344210416079	0.0013228924945	0.0013228924945	0.0		0.0	0.0013228924945	0	0	215	73	-538	5	13	-18	0	0	0	1	62728232	215	73	-538	5	13	-18	0	0	0	1	62728232	215	73	-538	5	13	-18	0	0	0	1	62728232	0.11	0.09	352.94	-0.0255570821464	0.0334696434438	-0.000510053301696	0.0	-0.0232730805874	0.0303469523787	-0.0013228924945	0.02	0.02	0.02	584.01	-1	0.0	0.0	0.0	0.0	0.0	222	46	-538	0	0	0	0	-0.02	0.03	0.0	-0.01	0.02	0.0	0	0	0	0.21	0.0	0.0	0.0	0.0	0.0	0.0	0.000110719571239	0	0	0	16	43839	0	0	0	0	0	0	0.17	0.17	0.0	0.0	0.5	0.000383643258829	0.00201102811843	0.00329161575064	0.11	0.09	352.94	-0.0258276443928	0.0331496819854	-0.00120252161287	0.0	-0.0232458226383	0.0300127994269	-0.00274708704092	0.02	0.02	0.03	584.09	-1	0.0	0.0	0.0	0.0	0.0	222	46	-538	0	0	0	0	-0.02	0.02	0.0	-0.01	0.02	0.0	0	0	0	0.21	0.0	0.0	0.0	0.0	0.0	0.0	0.000110437242256	0	0	0	16	43839	0	0	0.998103439808	0.00102339137811	0.000777392939199	-0.0615452975035	0.998104631901	0.00103553128429	0.00078715372365	-0.061526492238	-0.500099420547	0.0261720009148	-0.00124500109814	-0.431236118078	0.0213598385453	-0.0010678205872	0.000398745381972	0.0294875316322	-6.68069624226e-05	0.0	0.0560760498047	2.15243574075e-07	0.00087152060587	0.000808601500466	0.000992296496406	-0.00228476780467	-0.00031765003223	-9.81790924072	0	0	0.0	1	1	999	999	0.1	0.09	352.64	584.010009766	-35.3632621	149.1652374	0.997940957546	0.00100096664391	0.000761746778153	-0.0641270577908	0.00124168535694	1.72058971657e-05	0.0010714790551	1.63984150277e-05	6.65352999931e-05	2.0	0.2	0.2	0.04	1.0	62677.0	200.0	6.0	489757100.0	2152.0	10.0	1.21	-35.3632621	149.1652374	584.09	0.0	0.0	0.0	0.0	1.0	-35.3632623	149.1652377	584.010009766	0.0013228924945	0.0013228924945	-0.0441145785153	0.0567106045783	-0.0232730805874	0.0303469505161	0.0	0.0	-0.0255570802838	0.0334696434438	-0.0127528058365	0.0193268898875	-0.0139830289409	0.0209724828601	1500.0	1500.0	1000.0	1500.0	1800.0	1000.0	1000.0	1800.0	0.0	0.0	0.0	0.0	0.0	0.0	1000.0	1000.0	1000.0	1000.0	0.0	0.0	0.0	0.0	0.0	0.0	0.0	0.0	0.0	0.0	0.0	0.0	353.0	584.090026855	-35.3632621	149.1652374	0.998134791851	0.0	0.0	-0.0610485821962	0.00575574534014	0.00569183146581	0.00588145246729	0.0	0.0	0.0
1617984139.19976	62828192	0.0	0.11	0.0	0.09	352.94	352.95	0.0	0.0	0.0	94502.796875	33.77	0.0	62828	0.0	25.5348320007	1	12.5879774094	12.5879774094	0.0	0.0	0.0	0.0	0.0	1.85370445251e-05	6.18456397206e-11	2.20728306886e-05	0.344210416079	0.00134427007288	0.00134427007288	0.0		0.0	0.00134427007288	0	0	215	73	-538	5	13	-18	0	0	0	1	62828192	215	73	-538	5	13	-18	0	0	0	1	62828192	215	73	-538	5	13	-18	0	0	0	1	62828192	0.11	0.09	352.94	-0.0255273412913	0.0334619097412	-0.000474120111903	0.0	-0.0231606177986	0.0302098467946	-0.00134427007288	0.02	0.02	0.02	584.01	-1	0.0	0.0	0.0	0.0	0.0	222	46	-538	0	0	0	0	-0.02	0.03	0.0	-0.01	0.02	0.0	0	0	0	0.22	0.0	0.0	0.0	0.0	0.0	0.0	0.000110891232907	0	0	0	16	43839	0	0	0	0	0	0	0.17	0.17	0.0	0.0	0.5	0.000333012460032	0.000379493489163	0.000555642065592	0.11	0.09	352.94	-0.0258201379329	0.0331484153867	-0.00117356074043	0.0	-0.0231552086771	0.0298710186034	-0.00279567646794	0.02	0.02	0.03	584.09	-1	0.0	0.0	0.0	0.0	0.0	222	46	-538	0	0	0	0	-0.02	0.02	0.0	-0.01	0.02	0.0	0	0	0	0.22	0.0	0.0	0.0	0.0	0.0	0.0	0.000110699387733	0	0	0	16	43839	0	0	0.998103618622	0.0010215077782	0.000779027759563	-0.0615427680314	0.998104870319	0.00103737274185	0.000789486803114	-0.0615220852196	-0.499272674322	0.0198596939445	-0.00121104763821	-0.432196229696	0.0291249658912	-0.00113514286932	0.000419878197135	0.0239252950996	-6.43108069198e-05	0.0	-0.0369071960449	2.20728306886e-05	0.000818037660792	0.000769170990679	0.000831369077787	-0.00149290636182	-0.000786650110967	-9.8160905838	0	0	0.0	1	1	999	999	0.1	0.09	352.64	584.010009766	-35.3632621	149.1652374	0.997940897942	0.00100136548281	0.000763732066844	-0.0641283094883	0.0012407588074	1.59285664267e-05	0.0010723763844	1.90391492652e-05	6.67554559186e-05	2.0	0.2	0.2	0.04	1.0	62777.0	200.0	6.0	489757200.0	2152.0	10.0	1.21	-35.3632621	149.1652374	584.09	0.0	0.0	0.0	0.0	1.0	-35.3632623	149.1652377	584.010009766	0.00134427007288	0.00134427007288	-0.0441145785153	0.0567106045783	-0.0231606159359	0.030209844932	0.0	0.0	-0.0255273412913	0.0334619097412	-0.0127528058365	0.0193268898875	-0.0140173612162	0.020937545225	1500.0	1500.0	1000.0	1500.0	1800.0	1000.0	1000.0	1800.0	0.0	0.0	0.0	0.0	0.0	0.0	1000.0	1000.0	1000.0	1000.0	0.0	0.0	0.0	0.0	0.0	0.0	0.0	0.0	0.0	0.0	0.0	0.0	353.0	584.090026855	-35.3632621	149.1652374	0.998134791851	0.0	0.0	-0.0610485821962	0.00561939366162	0.00571994343773	0.00572604546323	0.0	0.0	0.0
1617984139.300553	62928985	0.0	0.11	0.0	0.09	352.94	352.95	0.0	0.0	0.0	94502.796875	33.77	0.0	62928	0.0	25.5348320007	1	12.5879774094	12.5879774094	0.0	0.0	0.0	0.0	0.0	-1.85966491699e-05	-6.18456397206e-11	2.98585121072e-08	0.344210416079	0.00136503146496	0.00136503146496	0.0		0.0	0.00136503146496	0	0	215	73	-538	5	13	-18	0	0	0	1	62928985	215	73	-538	5	13	-18	0	0	0	1	62928985	215	73	-538	5	13	-18	0	0	0	1	62928985	0.11	0.09	352.94	-0.0256640929729	0.0336810462177	-0.000501958304085	0.0	-0.0233520939946	0.0304697006941	-0.00136503146496	0.02	0.02	0.02	584.01	-1	0.0	0.0	0.0	0.0	0.0	222	46	-538	0	0	0	0	-0.02	0.03	0.0	-0.01	0.02	0.0	0	0	0	0.21	0.0	0.0	0.0	0.0	0.0	0.0	0.000111036890303	0	0	0	16	43839	0	0	0	0	0	0	0.17	0.17	0.0	0.0	0.5	0.000384467566619	0.00201110192575	0.00328975892626	0.11	0.09	352.94	-0.0259462725371	0.0333470515907	-0.00117282464635	0.0	-0.0233958940953	0.0301636438817	-0.00285772630014	0.02	0.02	0.03	584.09	-1	0.0	0.0	0.0	0.0	0.0	222	46	-538	0	0	0	0	-0.02	0.02	0.0	-0.01	0.02	0.0	0	0	0	0.22	0.0	0.0	0.0	0.0	0.0	0.0	0.000110885128379	0	0	0	16	43839	0	0	0.998103678226	0.00102162861731	0.000780289527029	-0.0615427494049	0.998105049133	0.00103622511961	0.000789290177636	-0.0615200102329	-0.49895387888	0.027852833271	-0.00124269118533	-0.432565540075	0.0232365783304	-0.00108387693763	0.00042179756565	0.0201482400298	-5.36809202458e-05	0.0	0.0371932983398	2.98585121072e-08	0.000901444989722	0.000841870263685	0.000829601311125	-0.00201528402977	0.000118970943731	-9.81769943237	0	0	0.0	1	1	999	999	0.1	0.09	352.64	584.010009766	-35.3632621	149.1652374	0.997940599918	0.000999180250801	0.000762370007578	-0.0641322955489	0.00123819487635	1.51777494466e-05	0.00107311364263	1.88986468856e-05	6.52703965898e-05	2.0	0.2	0.2	0.04	1.0	62877.0	200.0	6.0	489757300.0	2152.0	10.0	1.21	-35.3632621	149.1652374	584.09	0.0	0.0	0.0	0.0	1.0	-35.3632623	149.1652377	584.010009766	0.00136503146496	0.00136503146496	-0.0441145785153	0.0567106045783	-0.0233520939946	0.0304697006941	0.0	0.0	-0.0256640929729	0.0336810462177	-0.0127528058365	0.0193268898875	-0.0140419136733	0.0209414325655	1500.0	1500.0	1000.0	1500.0	1800.0	1000.0	1000.0	1800.0	0.0	0.0	0.0	0.0	0.0	0.0	1000.0	1000.0	1000.0	1000.0	0.0	0.0	0.0	0.0	0.0	0.0	0.0	0.0	0.0	0.0	0.0	0.0	353.0	584.090026855	-35.3632621	149.1652374	0.998134791851	0.0	0.0	-0.0610485821962	0.00584540562704	0.00555147975683	0.00549463229254	0.0	0.0	0.0
1617984139.4005127	63028945	0.0	0.11	0.0	0.09	352.94	352.95	0.0	0.0	0.0	94502.796875	33.78	0.0	63028	0.0	25.5348320007	1	12.5879774094	12.5879774094	0.0	0.0	0.0	0.0	0.0	-0.000163912773132	-5.52972778678e-10	0.0	0.344210416079	0.00138379144482	0.00138379144482	0.0		0.0	0.00138379144482	0	0	215	73	-538	5	13	-18	0	0	0	1	63028945	215	73	-538	5	13	-18	0	0	0	1	63028945	215	73	-538	5	13	-18	0	0	0	1	63028945	0.11	0.09	352.94	-0.0255334898829	0.0336208641529	-0.00054679135792	0.0	-0.0232347846031	0.0303297452629	-0.00138379144482	0.02	0.02	0.02	584.01	-1	0.0	0.0	0.0	0.0	0.0	222	46	-538	0	0	0	0	-0.02	0.03	0.0	-0.01	0.02	0.0	0	0	0	0.22	0.0	0.0	0.0	0.0	0.0	0.0	0.000111221510451	0	0	0	16	43839	0	0	0	0	0	0	0.17	0.17	0.0	0.0	0.5	0.000333617179422	0.000394296715967	0.000582110893447	0.11	0.09	352.94	-0.0259082261473	0.0333475098014	-0.00113533402327	0.0	-0.0232930090278	0.0300229340792	-0.00290540070273	0.02	0.02	0.03	584.09	-1	0.0	0.0	0.0	0.0	0.0	222	46	-538	0	0	0	0	-0.02	0.02	0.0	-0.01	0.02	0.0	0	0	0	0.23	0.0	0.0	0.0	0.0	0.0	0.0	0.000111038891191	0	0	0	16	43839	0	0	0.998103916645	0.00102212943602	0.000779015070293	-0.0615392066538	0.99810552597	0.0010320879519	0.000785948825069	-0.0615130960941	-0.499396681786	0.0292580984533	-0.00122211268172	-0.432052493095	0.0179582089186	-0.0010431134142	0.000433323933976	0.0195684246719	-6.29623391433e-05	0.0	0.327777862549	0.0	0.00106959801633	0.000829173135571	0.000774560496211	0.000150834821397	-0.000493763945997	-9.8189201355	0	0	0.0	1	1	999	999	0.1	0.09	352.64	584.010009766	-35.3632621	149.1652374	0.997940659523	0.000998543691821	0.00076067878399	-0.064131706953	0.00123968045227	1.60875406436e-05	0.00107378349639	1.84067594091e-05	6.45515974611e-05	2.0	0.2	0.2	0.04	1.0	62977.0	200.0	6.0	489757400.0	2152.0	10.0	1.21	-35.3632621	149.1652374	584.09	0.0	0.0	0.0	0.0	1.0	-35.3632623	149.1652377	584.010009766	0.00138379144482	0.00138379144482	-0.0441145785153	0.0567106045783	-0.0232347846031	0.0303297434002	0.0	0.0	-0.0255334898829	0.0336208604276	-0.0127528058365	0.0193268898875	-0.0140164345503	0.0209496524185	1500.0	1500.0	1000.0	1500.0	1800.0	1000.0	1000.0	1800.0	0.0	0.0	0.0	0.0	0.0	0.0	1000.0	1000.0	1000.0	1000.0	0.0	0.0	0.0	0.0	0.0	0.0	0.0	0.0	0.0	0.0	0.0	0.0	353.0	584.090026855	-35.3632621	149.1652374	0.998134791851	0.0	0.0	-0.0610485821962	0.0055463667959	0.00535564869642	0.00582194747403	0.0	0.0	0.0
1617984139.500473	63128905	0.0	0.11	0.0	0.09	352.94	352.95	0.0	0.0	0.0	94502.796875	33.78	0.0	63128	0.0	25.5348320007	1	12.5879774094	12.5879774094	0.0	0.0	0.0	0.0	0.0	-1.55568122864e-05	-5.27506927028e-11	1.38281975524e-05	0.344210416079	0.00141027092468	0.00141027092468	0.0		0.0	0.00141027092468	0	0	215	73	-538	5	13	-18	0	0	0	1	63128905	215	73	-538	5	13	-18	0	0	0	1	63128905	215	73	-538	5	13	-18	0	0	0	1	63128905	0.11	0.09	352.94	-0.0256129298359	0.0337268337607	-0.000520121306181	0.0	-0.0234174728394	0.0305907391012	-0.00141027092468	0.02	0.02	0.02	584.01	-1	0.0	0.0	0.0	0.0	0.0	222	46	-538	0	0	0	0	-0.02	0.03	0.0	-0.01	0.02	0.0	0	0	0	0.21	0.0	0.0	0.0	0.0	0.0	0.0	0.000111388711957	0	0	0	16	43839	0	0	0	0	0	0	0.17	0.17	0.0	0.0	0.5	0.000385364925023	0.00200730096549	0.00327989459038	0.11	0.09	352.94	-0.0260701403022	0.0335402712226	-0.00101880962029	0.0	-0.0234984308481	0.0302845854312	-0.00294817960821	0.02	0.02	0.03	584.09	-1	0.0	0.0	0.0	0.0	0.0	222	46	-538	0	0	0	0	-0.02	0.03	0.0	-0.01	0.02	0.0	0	0	0	0.22	0.0	0.0	0.0	0.0	0.0	0.0	0.000111192945042	0	0	0	16	43839	0	0	0.998104095459	0.00102608080488	0.000782962422818	-0.0615361481905	0.99810564518	0.0010341553716	0.00078953942284	-0.0615111403167	-0.503672540188	0.0301137827337	-0.00124757224694	-0.436242729425	0.0179222784936	-0.00104868307244	0.000421786331572	0.0212946329266	-6.582790229e-05	0.0	0.0310897827148	1.38281975524e-05	0.000942622486036	0.000750817358494	0.000851209217217	-8.33221565699e-05	-0.000897768710274	-9.81763839722	0	0	0.0	1	1	999	999	0.1	0.09	352.64	584.010009766	-35.3632621	149.1652374	0.997940540314	0.000999363022856	0.000762248644605	-0.0641337111592	0.00124400691129	1.67977341334e-05	0.00107762264088	1.93660835066e-05	6.40355210635e-05	2.0	0.2	0.2	0.04	1.0	63077.0	200.0	6.0	489757500.0	2152.0	10.0	1.21	-35.3632621	149.1652374	584.09	0.0	0.0	0.0	0.0	1.0	-35.3632623	149.1652377	584.010009766	0.00141027092468	0.00141027092468	-0.0441145785153	0.0567106045783	-0.0234174728394	0.0305907391012	0.0	0.0	-0.0256129279733	0.0337268337607	-0.0127528058365	0.0193268898875	-0.0140890050679	0.0210317242891	1500.0	1500.0	1000.0	1500.0	1800.0	1000.0	1000.0	1800.0	0.0	0.0	0.0	0.0	0.0	0.0	1000.0	1000.0	1000.0	1000.0	0.0	0.0	0.0	0.0	0.0	0.0	0.0	0.0	0.0	0.0	0.0	0.0	353.0	584.090026855	-35.3632621	149.1652374	0.998134791851	0.0	0.0	-0.0610485821962	0.00594472838566	0.00592148583382	0.00557505199686	0.0	0.0	0.0
1617984139.6004329	63228865	0.0	0.11	0.0	0.09	352.94	352.95	0.0	0.0	0.0	94502.796875	33.78	0.0	63228	0.0	25.5348320007	1	12.5879774094	12.5879774094	0.0	0.0	0.0	0.0	0.0	-4.19020652771e-05	-1.38243194669e-10	2.62804369413e-05	0.344210416079	0.00142936769407	0.00142936769407	0.0		0.0	0.00142936769407	0	0	215	73	-538	5	13	-18	0	0	0	1	63228865	215	73	-538	5	13	-18	0	0	0	1	63228865	215	73	-538	5	13	-18	0	0	0	1	63228865	0.11	0.09	352.94	-0.0256670247763	0.0337610654533	-0.000466280878754	0.0	-0.023297810927	0.0304573737085	-0.00142936769407	0.02	0.02	0.02	584.01	-1	0.0	0.0	0.0	0.0	0.0	222	46	-538	0	0	0	0	-0.02	0.03	0.0	-0.01	0.02	0.0	0	0	0	0.22	0.0	0.0	0.0	0.0	0.0	0.0	0.000111625464342	0	0	0	16	43839	0	0	0	0	0	0	0.17	0.17	0.0	0.0	0.5	0.000334589683916	0.000398447620682	0.000590056239162	0.11	0.09	352.94	-0.0258911121637	0.0334156267345	-0.000919053971302	0.0	-0.0233944691718	0.0301489848644	-0.00296947848983	0.02	0.02	0.03	584.09	-1	0.0	0.0	0.0	0.0	0.0	222	46	-538	0	0	0	0	-0.02	0.03	0.0	-0.01	0.02	0.0	0	0	0	0.22	0.0	0.0	0.0	0.0	0.0	0.0	0.000111444103823	0	0	0	16	43839	0	0	0.998104155064	0.00102541944943	0.000778505171183	-0.0615346208215	0.998105764389	0.00103487120941	0.00078950705938	-0.0615088567138	-0.504726350307	0.0233879461884	-0.00122813100461	-0.435019284487	0.0239340700209	-0.00113435392268	0.000419871357735	0.0156964045018	-5.89988922002e-05	0.0	0.0837326049805	2.62804369413e-05	0.000947882188484	0.000598435057327	0.000796790118329	-0.00427332054824	0.00207168166526	-9.81711578369	0	0	0.0	1	1	999	999	0.1	0.09	352.64	584.010009766	-35.3632621	149.1652374	0.9979403615	0.000999832875095	0.000760123017244	-0.0641362816095	0.00124665978365	1.65064830071e-05	0.0010752963135	2.33853188547e-05	6.47582419333e-05	2.0	0.2	0.2	0.04	1.0	63177.0	200.0	6.0	489757600.0	2152.0	10.0	1.21	-35.3632621	149.1652374	584.09	0.0	0.0	0.0	0.0	1.0	-35.3632623	149.1652377	584.010009766	0.00142936769407	0.00142936769407	-0.0441145785153	0.0567106045783	-0.023297810927	0.0304573718458	0.0	0.0	-0.0256670229137	0.0337610654533	-0.0127528058365	0.0193268898875	-0.0140025792643	0.021013379097	1500.0	1500.0	1000.0	1500.0	1800.0	1000.0	1000.0	1800.0	0.0	0.0	0.0	0.0	0.0	0.0	1000.0	1000.0	1000.0	1000.0	0.0	0.0	0.0	0.0	0.0	0.0	0.0	0.0	0.0	0.0	0.0	0.0	353.0	584.090026855	-35.3632621	149.1652374	0.998134791851	0.0	0.0	-0.0610485821962	0.00531109282747	0.0057710991241	0.0055746557191	0.0	0.0	0.0
1617984139.7003927	63328825	0.0	0.11	0.0	0.09	352.94	352.95	0.0	0.0	0.0	94502.796875	33.79	0.0	63328	0.0	25.5348320007	1	12.5879774094	12.5879774094	0.0	0.0	0.0	0.0	0.0	-3.69846820831e-05	-1.23691279441e-10	0.0	0.344210416079	0.00145149719901	0.00145149719901	0.0		0.0	0.00145149719901	0	0	215	73	-538	5	13	-18	0	0	0	1	63328825	215	73	-538	5	13	-18	0	0	0	1	63328825	215	73	-538	5	13	-18	0	0	0	1	63328825	0.11	0.09	352.94	-0.0258074905723	0.033867880702	-0.000502201961353	0.0	-0.0234925802797	0.0307189356536	-0.00145149719901	0.02	0.02	0.02	584.01	-1	0.0	0.0	0.0	0.0	0.0	222	46	-538	0	0	0	0	-0.02	0.03	0.0	-0.01	0.02	0.0	0	0	0	0.21	0.0	0.0	0.0	0.0	0.0	0.0	0.000111825720523	0	0	0	16	43839	0	0	0	0	0	0	0.17	0.17	0.0	0.0	0.5	0.000387201551348	0.00202023377642	0.00330067751929	0.11	0.09	352.94	-0.0259744077921	0.0336905382574	-0.00101610145066	0.0	-0.0235835872591	0.0304108466953	-0.00299778650515	0.02	0.02	0.03	584.09	-1	0.0	0.0	0.0	0.0	0.0	222	46	-538	0	0	0	0	-0.02	0.03	0.0	-0.01	0.02	0.0	0	0	0	0.22	0.0	0.0	0.0	0.0	0.0	0.0	0.000111668297905	0	0	0	16	43839	0	0	0.998104333878	0.0010287478799	0.000782129354775	-0.0615324117243	0.998106002808	0.00103492930066	0.000792642880697	-0.0615033730865	-0.504435479641	0.0228934958577	-0.00121245277114	-0.43535733223	0.0255910083652	-0.00109321344644	0.000425624195486	0.0180744733661	-5.94345074205e-05	0.0	0.0739097595215	0.0	0.000818251690362	0.000886278750841	0.000796513166279	-0.000498085457366	-0.000989162246697	-9.81807231903	0	0	0.0	1	1	999	999	0.1	0.09	352.64	584.010009766	-35.3632621	149.1652374	0.9979403615	0.000999178504571	0.000762295967434	-0.0641367435455	0.0012507449137	1.69428949448e-05	0.00107891194057	2.19545800064e-05	6.39128411422e-05	2.0	0.2	0.2	0.04	1.0	63277.0	200.0	6.0	489757700.0	2152.0	10.0	1.21	-35.3632621	149.1652374	584.09	0.0	0.0	0.0	0.0	1.0	-35.3632623	149.1652377	584.010009766	0.00145149719901	0.00145149719901	-0.0441145785153	0.0567106045783	-0.0234925784171	0.0307189337909	0.0	0.0	-0.0258074905723	0.033867880702	-0.0127528058365	0.0193268898875	-0.0140695581213	0.0210828799754	1500.0	1500.0	1000.0	1500.0	1800.0	1000.0	1000.0	1800.0	0.0	0.0	0.0	0.0	0.0	0.0	1000.0	1000.0	1000.0	1000.0	0.0	0.0	0.0	0.0	0.0	0.0	0.0	0.0	0.0	0.0	0.0	0.0	353.0	584.090026855	-35.3632621	149.1652374	0.998134791851	0.0	0.0	-0.0610485821962	0.00541689386591	0.00573341595009	0.00527385529131	0.0	0.0	0.0
1617984139.800353	63428785	0.0	0.11	0.0	0.09	352.94	352.95	0.0	0.0	0.0	94502.796875	33.79	0.0	63428	0.0	25.5348320007	1	12.5879774094	12.5879774094	0.0	0.0	0.0	0.0	0.0	-1.69575214386e-05	-5.63886715099e-11	3.67346765415e-05	0.344210416079	0.00146773690358	0.00146773690358	0.0		0.0	0.00146773690358	0	0	215	73	-538	5	13	-18	0	0	0	1	63428785	215	73	-538	5	13	-18	0	0	0	1	63428785	215	73	-538	5	13	-18	0	0	0	1	63428785	0.11	0.09	352.94	-0.0257339831442	0.0337976850569	-0.000448581151431	0.0	-0.0233832579106	0.0305796377361	-0.00146773690358	0.02	0.02	0.02	584.01	-1	0.0	0.0	0.0	0.0	0.0	222	46	-538	0	0	0	0	-0.02	0.03	0.0	-0.01	0.02	0.0	0	0	0	0.22	0.0	0.0	0.0	0.0	0.0	0.0	0.00011208352953	0	0	0	16	43839	0	0	0	0	0	0	0.17	0.17	0.0	0.0	0.5	0.000336436438374	0.000396759976866	0.000589970441069	0.11	0.09	352.94	-0.0259831734002	0.0336853973567	-0.000962961639743	0.0	-0.0234668068588	0.0302848145366	-0.00302040274255	0.02	0.02	0.03	584.09	-1	0.0	0.0	0.0	0.0	0.0	222	46	-538	0	0	0	0	-0.02	0.03	0.0	-0.01	0.02	0.0	0	0	0	0.22	0.0	0.0	0.0	0.0	0.0	0.0	0.000111987290438	0	0	0	16	43839	0	0	0.998104393482	0.00103016803041	0.000785210169852	-0.0615319088101	0.998106181622	0.00103350845166	0.000793819024693	-0.061501648277	-0.503900527954	0.026456778869	-0.00124003516976	-0.435978651047	0.0254417620599	-0.00106535339728	0.000421776348958	0.0183672271669	-5.87374233874e-05	0.0	0.0338554382324	3.67346765415e-05	0.000853546371218	0.00101414683741	0.000859601364937	-0.000416705617681	-0.000167657097336	-9.81551742554	0	0	0.0	1	1	999	999	0.1	0.09	352.64	584.010009766	-35.3632621	149.1652374	0.997940123081	0.000999502721243	0.000765556935221	-0.0641399100423	0.00125240010675	1.99266323762e-05	0.00108360499144	2.3055174097e-05	6.17267869529e-05	2.0	0.2	0.2	0.04	1.0	63377.0	200.0	6.0	489757800.0	2152.0	10.0	1.21	-35.3632621	149.1652374	584.09	0.0	0.0	0.0	0.0	1.0	-35.3632623	149.1652377	584.010009766	0.00146773690358	0.00146773690358	-0.0441145785153	0.0567106045783	-0.023383256048	0.0305796377361	0.0	0.0	-0.0257339831442	0.0337976850569	-0.0127528058365	0.0193268898875	-0.0141281653196	0.0211143940687	1500.0	1500.0	1000.0	1500.0	1800.0	1000.0	1000.0	1800.0	0.0	0.0	0.0	0.0	0.0	0.0	1000.0	1000.0	1000.0	1000.0	0.0	0.0	0.0	0.0	0.0	0.0	0.0	0.0	0.0	0.0	0.0	0.0	353.0	584.090026855	-35.3632621	149.1652374	0.998134791851	0.0	0.0	-0.0610485821962	0.00532569596544	0.00578557420522	0.00555786443874	0.0	0.0	0.0
1617984139.900313	63528745	0.0	0.11	0.0	0.09	352.94	352.95	0.0	0.0	0.0	94502.796875	33.8	0.0	63528	0.0	25.5348320007	1	12.5879774094	12.5879774094	0.0	0.0	0.0	0.0	0.0	6.20782375336e-05	2.11002770811e-10	4.35744641436e-06	0.344210416079	0.00148866267409	0.00148866267409	0.0		0.0	0.00148866267409	0	0	215	73	-538	5	13	-18	0	0	0	1	63528745	215	73	-538	5	13	-18	0	0	0	1	63528745	215	73	-538	5	13	-18	0	0	0	1	63528745	0.11	0.09	352.94	-0.0258883051574	0.0340038836002	-0.000531038385816	0.0	-0.0235779210925	0.0308414362371	-0.00148866267409	0.02	0.02	0.02	584.01	-1	0.0	0.0	0.0	0.0	0.0	222	46	-538	0	0	0	0	-0.02	0.03	0.0	-0.01	0.02	0.0	0	0	0	0.21	0.0	0.0	0.0	0.0	0.0	0.0	0.000112296089355	0	0	0	16	43839	0	0	0	0	0	0	0.17	0.17	0.0	0.0	0.5	0.000389021297451	0.00203382363543	0.00331935030408	0.11	0.09	352.94	-0.0261071864516	0.0338286794722	-0.00103920546826	0.0	-0.0236295349896	0.0305156614631	-0.00304957735352	0.02	0.02	0.03	584.09	-1	0.0	0.0	0.0	0.0	0.0	222	46	-538	0	0	0	0	-0.02	0.03	0.0	-0.01	0.02	0.0	0	0	0	0.22	0.0	0.0	0.0	0.0	0.0	0.0	0.000112202098535	0	0	0	16	43839	0	0	0.998104572296	0.00103207526263	0.000787372991908	-0.0615287534893	0.998106300831	0.00103929906618	0.00079692347208	-0.0614983849227	-0.508212327957	0.0169008094817	-0.00119041500147	-0.440046042204	0.0321854092181	-0.00115313287824	0.000421770528192	0.0288683399558	-6.30261856713e-05	0.0	-0.123596191406	4.35744641436e-06	0.000715253816452	0.00100294034928	0.000986350700259	-0.00170380575582	-0.00136623461731	-9.81610202789	0	0	0.0	1	1	999	999	0.1	0.09	352.64	584.010009766	-35.3632621	149.1652374	0.997940063477	0.00100193568505	0.000767301535234	-0.0641408935189	0.00125447742175	2.21226964641e-05	0.00108414224815	2.12370960071e-05	6.16705365246e-05	2.0	0.2	0.2	0.04	1.0	63477.0	200.0	6.0	489757900.0	2152.0	10.0	1.21	-35.3632621	149.1652374	584.09	0.0	0.0	0.0	0.0	1.0	-35.3632623	149.1652377	584.010009766	0.00148866267409	0.00148866267409	-0.0441145785153	0.0567106045783	-0.0235779210925	0.0308414362371	0.0	0.0	-0.0258883032948	0.0340038798749	-0.0127528058365	0.0193268898875	-0.0141682708636	0.0211542937905	1500.0	1500.0	1000.0	1500.0	1800.0	1000.0	1000.0	1800.0	0.0	0.0	0.0	0.0	0.0	0.0	1000.0	1000.0	1000.0	1000.0	0.0	0.0	0.0	0.0	0.0	0.0	0.0	0.0	0.0	0.0	0.0	0.0	353.0	584.090026855	-35.3632621	149.1652374	0.998134791851	0.0	0.0	-0.0610485821962	0.00534413568676	0.00553767150268	0.00541648129001	0.0	0.0	0.0
1617984140.0002728	63628705	0.0	0.11	0.0	0.09	352.94	352.95	0.0	0.0	0.0	94502.796875	33.8	0.0	63628	0.0	25.5348320007	1	12.5879774094	12.5879774094	0.0	0.0	0.0	0.0	0.0	-1.53779983521e-05	-5.27506927028e-11	0.0	0.344210416079	0.00150802743156	0.00150802743156	0.0		0.0	0.00150802743156	0	0	215	73	-538	5	13	-18	0	0	0	1	63628705	215	73	-538	5	13	-18	0	0	0	1	63628705	215	73	-538	5	13	-18	0	0	0	1	63628705	0.11	0.09	352.94	-0.0258365683258	0.0339272357523	-0.00052767409943	0.0	-0.0234669595957	0.0306993424892	-0.00150802743156	0.02	0.02	0.02	584.01	-1	0.0	0.0	0.0	0.0	0.0	222	46	-538	0	0	0	0	-0.02	0.03	0.0	-0.01	0.02	0.0	0	0	0	0.22	0.0	0.0	0.0	0.0	0.0	0.0	0.000112551599159	0	0	0	16	43839	0	0	0	0	0	0	0.17	0.17	0.0	0.0	0.5	0.000337636505719	0.000392595567973	0.000585950503591	0.11	0.09	352.94	-0.026101315394	0.0338843017817	-0.000930552545469	0.0	-0.0235263444483	0.030401578173	-0.00307301129214	0.02	0.02	0.03	584.09	-1	0.0	0.0	0.0	0.0	0.0	222	46	-538	0	0	0	0	-0.02	0.03	0.0	-0.01	0.02	0.0	0	0	0	0.23	0.0	0.0	0.0	0.0	0.0	0.0	0.000112349742267	0	0	0	16	43839	0	0	0.99810475111	0.00103000830859	0.000791968952399	-0.0615251213312	0.998106598854	0.0010382134933	0.000799424946308	-0.0614946745336	-0.50653475523	0.0165334232152	-0.00121659645811	-0.441982150078	0.0297079589218	-0.00110322702676	0.000431374559412	0.0195356998593	-6.55837866361e-05	0.0	0.0307083129883	0.0	0.000859114748891	0.00102825346403	0.00083141180221	-0.000449176470283	-0.00149595155381	-9.81805992126	0	0	0.0	1	1	999	999	0.1	0.09	352.64	584.010009766	-35.3632621	149.1652374	0.997940003872	0.00100163719617	0.000772283587139	-0.0641414150596	0.00125477730762	2.15225645661e-05	0.00109287537634	1.95101420104e-05	6.40732614556e-05	2.0	0.2	0.2	0.04	1.0	63577.0	200.0	6.0	489758000.0	2152.0	10.0	1.21	-35.3632621	149.1652374	584.09	0.0	0.0	0.0	0.0	1.0	-35.3632623	149.1652377	584.010009766	0.00150802743156	0.00150802743156	-0.0441145785153	0.0567106045783	-0.023466957733	0.0306993424892	0.0	0.0	-0.0258365664631	0.0339272357523	-0.0127528058365	0.0193268898875	-0.0142608126625	0.0211193244904	1500.0	1500.0	1000.0	1500.0	1800.0	1000.0	1000.0	1800.0	0.0	0.0	0.0	0.0	0.0	0.0	1000.0	1000.0	1000.0	1000.0	0.0	0.0	0.0	0.0	0.0	0.0	0.0	0.0	0.0	0.0	0.0	0.0	353.0	584.090026855	-35.3632621	149.1652374	0.998134791851	0.0	0.0	-0.0610485821962	0.00595435872674	0.00595916993916	0.00537224207073	0.0	0.0	0.0
1617984140.100233	63728665	0.0	0.11	0.0	0.09	352.94	352.95	0.0	0.0	0.0	94502.796875	33.8	0.0	63728	0.0	25.5348320007	1	12.5879774094	12.5879774094	0.0	0.0	0.0	0.0	0.0	-1.09672546387e-05	-3.81987774745e-11	0.0	0.344210416079	0.0015326095745	0.0015326095745	0.0		0.0	0.0015326095745	0	0	215	73	-538	5	13	-18	0	0	0	1	63728665	215	73	-538	5	13	-18	0	0	0	1	63728665	215	73	-538	5	13	-18	0	0	0	1	63728665	0.11	0.09	352.94	-0.0258969124407	0.0339984893799	-0.000605736451689	0.0	-0.0236562602222	0.0309502966702	-0.0015326095745	0.02	0.02	0.02	584.01	-1	0.0	0.0	0.0	0.0	0.0	222	46	-538	0	0	0	0	-0.02	0.03	0.0	-0.01	0.02	0.0	0	0	0	0.21	0.0	0.0	0.0	0.0	0.0	0.0	0.000112756773888	0	0	0	16	43839	0	0	0	0	0	0	0.17	0.17	0.0	0.0	0.5	0.000390295404941	0.00204567983747	0.00333673204295	0.11	0.09	352.94	-0.0261409766972	0.034041736275	-0.000856725324411	0.0	-0.0237267911434	0.0306809134781	-0.00309291505255	0.02	0.02	0.03	584.09	-1	0.0	0.0	0.0	0.0	0.0	222	46	-538	0	0	0	0	-0.02	0.03	0.0	-0.01	0.02	0.0	0	0	0	0.22	0.0	0.0	0.0	0.0	0.0	0.0	0.000112500354589	0	0	0	16	43839	0	0	0.998104691505	0.00102997478098	0.000793459650595	-0.0615254417062	0.998107135296	0.00103785621468	0.000802120601293	-0.0614863447845	-0.506112039089	0.0325119458139	-0.00129161973018	-0.44246789813	0.0220020264387	-0.00110346160363	0.000417926086811	0.0112152667716	-5.38442945981e-05	0.0	0.0219345092773	0.0	0.000989280990325	0.000826737086754	0.000679656048305	-0.00125094200484	-0.00118340202607	-9.81756019592	0	0	0.0	1	1	999	999	0.1	0.09	352.64	584.010009766	-35.3632621	149.1652374	0.997940003872	0.00100008584559	0.000772942672484	-0.0641415268183	0.00125266157556	2.06505956157e-05	0.00109476037323	1.90042246686e-05	6.30696958979e-05	2.0	0.2	0.2	0.04	1.0	63677.0	200.0	6.0	489758100.0	2152.0	10.0	1.21	-35.3632621	149.1652374	584.09	0.0	0.0	0.0	0.0	1.0	-35.3632623	149.1652377	584.010009766	0.0015326095745	0.0015326095745	-0.0441145785153	0.0567106045783	-0.0236562602222	0.0309502948076	0.0	0.0	-0.025896910578	0.0339984893799	-0.0127528058365	0.0193268898875	-0.0142900273204	0.0211204718798	1500.0	1500.0	1000.0	1500.0	1800.0	1000.0	1000.0	1800.0	0.0	0.0	0.0	0.0	0.0	0.0	1000.0	1000.0	1000.0	1000.0	0.0	0.0	0.0	0.0	0.0	0.0	0.0	0.0	0.0	0.0	0.0	0.0	353.0	584.090026855	-35.3632621	149.1652374	0.998134791851	0.0	0.0	-0.0610485821962	0.00548749836162	0.00574837299064	0.00560169806704	0.0	0.0	0.0
1617984140.2001927	63828625	0.0	0.11	0.0	0.09	352.94	352.95	0.0	0.0	0.0	94502.796875	33.81	0.0	63828	0.0	25.5348320007	1	12.5879774094	12.5879774094	0.0	0.0	0.0	0.0	0.0	4.21702861786e-05	1.45519152284e-10	3.64733887182e-06	0.344210416079	0.00156099942978	0.00156099942978	0.0		0.0	0.00156099942978	0	0	215	73	-538	5	13	-18	0	0	0	1	63828625	215	73	-538	5	13	-18	0	0	0	1	63828625	215	73	-538	5	13	-18	0	0	0	1	63828625	0.11	0.09	352.94	-0.0258823372424	0.033897548914	-0.000616304401774	0.0	-0.0235391259193	0.0307933390141	-0.00156099942978	0.02	0.02	0.02	584.01	-1	0.0	0.0	0.0	0.0	0.0	222	46	-538	0	0	0	0	-0.02	0.03	0.0	-0.01	0.02	0.0	0	0	0	0.22	0.0	0.0	0.0	0.0	0.0	0.0	0.000112990819616	0	0	0	16	43839	0	0	0	0	0	0	0.17	0.17	0.0	0.0	0.5	0.000338626094162	0.000390620291	0.000583713175729	0.11	0.09	352.95	-0.0262186657637	0.0339311175048	-0.000907681358512	0.0	-0.0236212331802	0.0305583048612	-0.00310673750937	0.02	0.02	0.03	584.09	-1	0.0	0.0	0.0	0.0	0.0	222	46	-538	0	0	0	0	-0.02	0.03	0.0	-0.01	0.02	0.0	0	0	0	0.23	0.0	0.0	0.0	0.0	0.0	0.0	0.000112751680717	0	0	0	16	43839	0	0	0.998104989529	0.00102890073322	0.00079209136311	-0.0615208595991	0.998107254505	0.00103678368032	0.000799918023404	-0.0614841505885	-0.506275117397	0.0244157575071	-0.0012500238372	-0.44228041172	0.0186647418886	-0.00107856176328	0.000437139475252	0.0199164375663	-6.81632154738e-05	0.0	-0.0839233398438	3.64733887182e-06	0.000838467502035	0.000914264819585	0.000867052585818	0.000435736728832	-0.00115376384929	-9.8182888031	0	0	0.0	1	1	999	999	0.1	0.09	352.64	584.010009766	-35.3632621	149.1652374	0.997940003872	0.00100030621979	0.000771998194978	-0.0641422495246	0.00125413015485	1.96602049982e-05	0.00109492556658	2.08014225791e-05	6.33574672975e-05	2.0	0.2	0.2	0.04	1.0	63777.0	200.0	6.0	489758200.0	2152.0	10.0	1.21	-35.3632621	149.1652374	584.09	0.0	0.0	0.0	0.0	1.0	-35.3632623	149.1652377	584.010009766	0.00156099942978	0.00156099942978	-0.0441145785153	0.0567106045783	-0.0235391259193	0.0307933371514	0.0	0.0	-0.0258823372424	0.0338975451887	-0.0127528058365	0.0193268898875	-0.0142646357417	0.0210977289826	1500.0	1500.0	1000.0	1500.0	1800.0	1000.0	1000.0	1800.0	0.0	0.0	0.0	0.0	0.0	0.0	1000.0	1000.0	1000.0	1000.0	0.0	0.0	0.0	0.0	0.0	0.0	0.0	0.0	0.0	0.0	0.0	0.0	353.0	584.090026855	-35.3632621	149.1652374	0.998134791851	0.0	0.0	-0.0610485821962	0.00557173928246	0.00558045087382	0.00575782824308	0.0	0.0	0.0
1617984140.300153	63928585	0.0	0.11	0.0	0.09	352.94	352.95	0.0	0.0	0.0	94502.796875	33.81	0.0	63928	0.0	25.5348320007	1	12.5879774094	12.5879774094	0.0	0.0	0.0	0.0	0.0	6.56545162201e-05	2.2555468604e-10	1.35683671942e-06	0.344210416079	0.0015931337839	0.0015931337839	0.0		0.0	0.0015931337839	0	0	215	73	-538	5	13	-18	0	0	0	1	63928585	215	73	-538	5	13	-18	0	0	0	1	63928585	215	73	-538	5	13	-18	0	0	0	1	63928585	0.11	0.09	352.94	-0.0260463859886	0.0340658836067	-0.000625652493909	0.0	-0.0237348694354	0.0310340803117	-0.0015931337839	0.02	0.02	0.02	584.01	-1	0.0	0.0	0.0	0.0	0.0	222	46	-538	0	0	0	0	-0.02	0.03	0.0	-0.01	0.02	0.0	0	0	0	0.22	0.0	0.0	0.0	0.0	0.0	0.0	0.000113148525998	0	0	0	16	43839	0	0	0	0	0	0	0.17	0.17	0.0	0.0	0.5	0.000391013803892	0.0020427624695	0.00333642656915	0.11	0.09	352.95	-0.0263215228915	0.0340721905231	-0.000970734108705	0.0	-0.0238286461681	0.0308240596205	-0.00313442829065	0.02	0.02	0.03	584.09	-1	0.0	0.0	0.0	0.0	0.0	222	46	-538	0	0	0	0	-0.02	0.03	0.0	-0.01	0.02	0.0	0	0	0	0.22	0.0	0.0	0.0	0.0	0.0	0.0	0.000112962748972	0	0	0	16	43839	0	0	0.998105049133	0.00103017722722	0.000796077249106	-0.0615190714598	0.998107492924	0.00103982561268	0.000800272391643	-0.0614803545177	-0.505466639996	0.0313860476017	-0.00127227290068	-0.44320717454	0.0234592910856	-0.00109875958879	0.000435212015873	0.0197593588382	-6.61421436234e-05	0.0	-0.130653381348	1.35683671942e-06	0.00097116449615	0.000853675010148	0.000830162956845	-0.000163266900927	0.00216396059841	-9.81604003906	0	0	0.0	1	1	999	999	0.1	0.09	352.64	584.010009766	-35.3632621	149.1652374	0.997939884663	0.00100073951762	0.000772600644268	-0.0641434639692	0.00125385867432	1.89256970771e-05	0.00109855493065	2.06924160011e-05	6.35801116005e-05	2.0	0.2	0.2	0.04	1.0	63877.0	200.0	6.0	489758300.0	2152.0	10.0	1.21	-35.3632621	149.1652374	584.09	0.0	0.0	0.0	0.0	1.0	-35.3632623	149.1652377	584.010009766	0.0015931337839	0.0015931337839	-0.0441145785153	0.0567106045783	-0.0237348694354	0.0310340803117	0.0	0.0	-0.0260463859886	0.0340658836067	-0.0127528058365	0.0193268898875	-0.0143411597237	0.02112749964	1500.0	1500.0	1000.0	1500.0	1800.0	1000.0	1000.0	1800.0	0.0	0.0	0.0	0.0	0.0	0.0	1000.0	1000.0	1000.0	1000.0	0.0	0.0	0.0	0.0	0.0	0.0	0.0	0.0	0.0	0.0	0.0	0.0	353.0	584.090026855	-35.3632621	149.1652374	0.998134791851	0.0	0.0	-0.0610485821962	0.00615394115448	0.00562696997076	0.00530584715307	0.0	0.0	0.0
1617984140.4001129	64028545	0.0	0.11	0.0	0.09	352.94	352.95	0.0	0.0	0.0	94502.796875	33.82	0.0	64028	0.0	25.5348320007	1	12.5879774094	12.5879774094	0.0	0.0	0.0	0.0	0.0	8.25524330139e-06	2.8194335755e-11	1.01581317722e-05	0.344210416079	0.00161575223319	0.00161575223319	0.0		0.0	0.00161575223319	0	0	215	73	-538	5	13	-18	0	0	0	1	64028545	215	73	-538	5	13	-18	0	0	0	1	64028545	215	73	-538	5	13	-18	0	0	0	1	64028545	0.11	0.09	352.94	-0.0260288268328	0.0339394137263	-0.000582967652008	0.0	-0.0236215852201	0.0308721419424	-0.00161575223319	0.02	0.02	0.02	584.01	-1	0.0	0.0	0.0	0.0	0.0	222	46	-538	0	0	0	0	-0.02	0.03	0.0	-0.01	0.02	0.0	0	0	0	0.22	0.0	0.0	0.0	0.0	0.0	0.0	0.000113257214252	0	0	0	16	43839	0	0	0	0	0	0	0.17	0.17	0.0	0.0	0.5	0.000339043850545	0.000398939213483	0.000594187295064	0.11	0.09	352.95	-0.0261831842363	0.0340264849365	-0.00104168336838	0.0	-0.023716730997	0.030684903264	-0.00316445669159	0.02	0.02	0.03	584.09	-1	0.0	0.0	0.0	0.0	0.0	222	46	-538	0	0	0	0	-0.02	0.03	0.0	-0.01	0.02	0.0	0	0	0	0.23	0.0	0.0	0.0	0.0	0.0	0.0	0.000113228546979	0	0	0	16	43839	0	0	0.998105347157	0.00103251263499	0.000795674161054	-0.0615155622363	0.998107433319	0.00103864306584	0.000799813889898	-0.061480127275	-0.50606906414	0.0347214862704	-0.00128435099032	-0.442516922951	0.0237924326211	-0.00110028835479	0.000427524006227	0.025064278394	-6.47110427963e-05	0.0	-0.0164985656738	1.01581317722e-05	0.000892463198397	0.000953871756792	0.00077237165533	-0.00116086541675	-0.000450257968623	-9.81828689575	0	0	0.0	1	1	999	999	0.1	0.09	352.64	584.010009766	-35.3632621	149.1652374	0.997939765453	0.0010022057686	0.000772893021349	-0.0641455948353	0.00125704344828	1.89780203073e-05	0.00109940441325	1.80268707481e-05	6.40559446765e-05	2.0	0.2	0.2	0.04	1.0	63977.0	200.0	6.0	489758400.0	2152.0	10.0	1.21	-35.3632621	149.1652374	584.09	0.0	0.0	0.0	0.0	1.0	-35.3632623	149.1652377	584.010009766	0.00161575223319	0.00161575223319	-0.0441145785153	0.0567106045783	-0.0236215852201	0.0308721419424	0.0	0.0	-0.0260288249701	0.0339394137263	-0.0127528058365	0.0193268898875	-0.0143305277452	0.0211726855487	1500.0	1500.0	1000.0	1500.0	1800.0	1000.0	1000.0	1800.0	0.0	0.0	0.0	0.0	0.0	0.0	1000.0	1000.0	1000.0	1000.0	0.0	0.0	0.0	0.0	0.0	0.0	0.0	0.0	0.0	0.0	0.0	0.0	353.0	584.090026855	-35.3632621	149.1652374	0.998134791851	0.0	0.0	-0.0610485821962	0.0058798356913	0.00591904716566	0.00515438476577	0.0	0.0	0.0
1617984140.5000727	64128505	0.0	0.11	0.0	0.09	352.94	352.95	0.0	0.0	0.0	94502.796875	33.82	0.0	64128	0.0	25.5348320007	1	12.5879774094	12.5879774094	0.0	0.0	0.0	0.0	0.0	4.81903553009e-05	1.67347025126e-10	9.30446788061e-07	0.344210416079	0.00163813354447	0.00163813354447	0.0		0.0	0.00163813354447	0	0	215	73	-538	5	13	-18	0	0	0	1	64128505	215	73	-538	5	13	-18	0	0	0	1	64128505	215	73	-538	5	13	-18	0	0	0	1	64128505	0.11	0.09	352.94	-0.0261330213398	0.0340180695057	-0.000559628941119	0.0	-0.0238197259605	0.031108699739	-0.00163813354447	0.02	0.02	0.02	584.01	-1	0.0	0.0	0.0	0.0	0.0	222	46	-538	0	0	0	0	-0.02	0.03	0.0	-0.01	0.02	0.0	0	0	0	0.22	0.0	0.0	0.0	0.0	0.0	0.0	0.000113349080493	0	0	0	16	43839	0	0	0	0	0	0	0.17	0.17	0.0	0.0	0.5	0.00039141473826	0.00203943648376	0.00333420629613	0.11	0.09	352.95	-0.0263323839754	0.0342272594571	-0.000996374990791	0.0	-0.0239094439894	0.0309498868883	-0.00320167373866	0.02	0.02	0.03	584.09	-1	0.0	0.0	0.0	0.0	0.0	222	46	-538	0	0	0	0	-0.02	0.03	0.0	-0.01	0.02	0.0	0	0	0	0.22	0.0	0.0	0.0	0.0	0.0	0.0	0.00011342894868	0	0	0	16	43839	0	0	0.998105347157	0.00103442196269	0.00079722458031	-0.0615152642131	0.998107910156	0.00104712357279	0.000803208095022	-0.0614729970694	-0.506025850773	0.0205879621208	-0.00123387412168	-0.44256657362	0.0222466345876	-0.00106881395914	0.000431360764196	0.0126329427585	-5.76189559069e-05	0.0	-0.0959396362305	9.30446788061e-07	0.000784215633757	0.000833999190945	0.000707142578904	4.69986953249e-05	-0.00315254949965	-9.81637763977	0	0	0.0	1	1	999	999	0.1	0.09	352.64	584.010009766	-35.3632621	149.1652374	0.997939825058	0.00100230844691	0.00077051401604	-0.0641444027424	0.0012578786118	1.73739626916e-05	0.00109963212162	1.64581633726e-05	6.40031430521e-05	2.0	0.2	0.2	0.04	1.0	64077.0	200.0	6.0	489758500.0	2152.0	10.0	1.21	-35.3632621	149.1652374	584.09	0.0	0.0	0.0	0.0	1.0	-35.3632623	149.1652377	584.010009766	0.00163813354447	0.00163813354447	-0.0441145785153	0.0567106045783	-0.0238197240978	0.0311086978763	0.0	0.0	-0.0261330213398	0.0340180657804	-0.0127528058365	0.0193268898875	-0.0143585810438	0.0212119296193	1500.0	1500.0	1000.0	1500.0	1800.0	1000.0	1000.0	1800.0	0.0	0.0	0.0	0.0	0.0	0.0	1000.0	1000.0	1000.0	1000.0	0.0	0.0	0.0	0.0	0.0	0.0	0.0	0.0	0.0	0.0	0.0	0.0	353.0	584.090026855	-35.3632621	149.1652374	0.998134791851	0.0	0.0	-0.0610485821962	0.00581250106916	0.00616088835523	0.00534881511703	0.0	0.0	0.0
1617984140.600033	64228465	0.0	0.11	0.0	0.09	352.94	352.95	0.0	0.0	0.0	94502.796875	33.82	0.0	64228	0.0	25.5348320007	1	12.5879774094	12.5879774094	0.0	0.0	0.0	0.0	0.0	7.52210617065e-05	2.61934474111e-10	2.09531026485e-05	0.344210416079	0.00165485183243	0.00165485183243	0.0		0.0	0.00165485183243	0	0	215	73	-538	5	13	-18	0	0	0	1	64228465	215	73	-538	5	13	-18	0	0	0	1	64228465	215	73	-538	5	13	-18	0	0	0	1	64228465	0.11	0.09	352.94	-0.0261554941535	0.0340050086379	-0.000536843144801	0.0	-0.023713234812	0.0309476722032	-0.00165485183243	0.02	0.02	0.02	584.01	-1	0.0	0.0	0.0	0.0	0.0	222	46	-538	0	0	0	0	-0.02	0.03	0.0	-0.01	0.02	0.0	0	0	0	0.22	0.0	0.0	0.0	0.0	0.0	0.0	0.000113464811875	0	0	0	16	43839	0	0	0	0	0	0	0.17	0.17	0.0	0.0	0.5	0.000339452730259	0.000400972989155	0.000595704244915	0.11	0.09	352.95	-0.0262139253318	0.0342040099204	-0.000853668607306	0.0	-0.0237864106894	0.0308135394007	-0.0032226415351	0.02	0.02	0.03	584.09	-1	0.0	0.0	0.0	0.0	0.0	222	46	-538	0	0	0	0	-0.02	0.03	0.0	-0.01	0.02	0.0	0	0	0	0.23	0.0	0.0	0.0	0.0	0.0	0.0	0.000113628768304	0	0	0	16	43839	0	0	0.998105883598	0.00103460915852	0.000799668254331	-0.0615053363144	0.998108208179	0.00105000601616	0.000801887945272	-0.0614677332342	-0.505443036556	0.0260524302721	-0.00122682144865	-0.443234324455	0.0283471252769	-0.00112155324314	0.00043327891035	0.0295719821006	-8.0994781456e-05	0.0	-0.149726867676	2.09531026485e-05	0.0009221235523	0.000834522012156	0.00100063404534	-0.00339283514768	-0.000100967285107	-9.81715774536	0	0	0.0	1	1	999	999	0.1	0.09	352.64	584.010009766	-35.3632621	149.1652374	0.997940182686	0.00100139621645	0.00076852744678	-0.0641392022371	0.00125792750623	1.78271820914e-05	0.00110166147351	1.69376671693e-05	6.69834262226e-05	2.0	0.2	0.2	0.04	1.0	64177.0	200.0	6.0	489758600.0	2152.0	10.0	1.21	-35.3632621	149.1652374	584.09	0.0	0.0	0.0	0.0	1.0	-35.3632623	149.1652377	584.010009766	0.00165485183243	0.00165485183243	-0.0441145785153	0.0567106045783	-0.023713234812	0.0309476722032	0.0	0.0	-0.0261554922909	0.0340050086379	-0.0127528058365	0.0193268898875	-0.0144064025953	0.0212183967233	1500.0	1500.0	1000.0	1500.0	1800.0	1000.0	1000.0	1800.0	0.0	0.0	0.0	0.0	0.0	0.0	1015.0	1015.0	1015.0	1015.0	0.0	0.0	0.0	0.0	0.0	0.0	0.0	0.0	0.0	0.0	0.0	0.0	353.0	584.090026855	-35.3632621	149.1652374	0.998134791851	0.0	0.0	-0.0610485821962	0.00566918868572	0.00544725079089	0.00550306914374	0.0	0.0	0.0
1617984140.699993	64328425	0.0	0.11	0.0	0.09	352.94	352.95	0.0	0.0	0.0	94502.796875	33.83	0.0	64328	0.0	25.5348320007	1	12.5879774094	12.5879774094	0.0	0.0	0.0	0.0	0.0	-8.91387462616e-05	-3.05590219796e-10	5.88622151554e-06	0.344210416079	0.00166845379863	0.00166845379863	0.0		0.0	0.00166845379863	0	0	215	73	-538	5	13	-18	0	0	0	1	64328425	215	73	-538	5	13	-18	0	0	0	1	64328425	215	73	-538	5	13	-18	0	0	0	1	64328425	0.11	0.09	352.94	-0.0262873414904	0.0341134257615	-0.000544260255992	0.0	-0.0239157527685	0.0311893392354	-0.00166845379863	0.02	0.02	0.02	584.01	-1	0.0	0.0	0.0	0.0	0.0	222	46	-538	0	0	0	0	-0.02	0.03	0.0	-0.01	0.02	0.0	0	0	0	0.22	0.0	0.0	0.0	0.0	0.0	0.0	0.000113564579806	0	0	0	16	43839	0	0	0	0	0	0	0.17	0.17	0.0	0.0	0.5	0.000392155867303	0.00204770243727	0.00334940897301	0.11	0.09	352.95	-0.0262600630522	0.0343086645007	-0.000777440553065	0.0	-0.0239700824022	0.0310800410807	-0.00323885842226	0.02	0.02	0.03	584.09	-1	0.0	0.0	0.0	0.0	0.0	222	46	-538	0	0	0	0	-0.02	0.03	0.0	-0.01	0.02	0.0	0	0	0	0.23	0.0	0.0	0.0	0.0	0.0	0.0	0.000113781170512	0	0	0	16	43839	0	0	0.998106062412	0.00103898777161	0.000805297517218	-0.0615040622652	0.998108446598	0.00104914663825	0.000803311588243	-0.0614644661546	-0.509242415428	0.0351224467158	-0.00127954618074	-0.447805434465	0.0187654606998	-0.00107934651896	0.000440948730102	0.021334271878	-6.72376190778e-05	0.0	0.178241729736	5.88622151554e-06	0.00103998184204	0.000775342225097	0.000861036300194	-0.000163660719409	-0.0013586608693	-9.81914043427	0	0	0.0	1	1	999	999	0.1	0.09	352.64	584.010009766	-35.3632621	149.1652374	0.997940182686	0.000997688621283	0.000767778081354	-0.0641392618418	0.00126040063333	1.85806475201e-05	0.00110863090958	1.82865442184e-05	6.87204810674e-05	2.0	0.2	0.2	0.04	1.0	64277.0	200.0	6.0	489758700.0	2152.0	10.0	1.21	-35.3632621	149.1652374	584.09	0.0	0.0	0.0	0.0	1.0	-35.3632623	149.1652377	584.010009766	0.00166845379863	0.00166845379863	-0.0441145785153	0.0567106045783	-0.0239157527685	0.0311893392354	0.0	0.0	-0.0262873396277	0.0341134257615	-0.0127528058365	0.0193268898875	-0.014511352405	0.0213108919561	1500.0	1500.0	1000.0	1500.0	1800.0	1000.0	1000.0	1800.0	0.0	0.0	0.0	0.0	0.0	0.0	1045.0	1045.0	1045.0	1045.0	0.0	0.0	0.0	0.0	0.0	0.0	0.0	0.0	0.0	0.0	0.0	0.0	353.0	584.090026855	-35.3632621	149.1652374	0.998134791851	0.0	0.0	-0.0610485821962	0.00529832113534	0.00549061456695	0.00561874173582	0.0	0.0	0.0
1617984140.7999527	64428385	0.0	0.11	0.0	0.09	352.94	352.95	0.0	0.0	0.0	94502.796875	33.83	0.0	64428	0.0	25.5348320007	1	12.5879774094	12.5879774094	0.0	0.0	0.0	0.0	0.0	3.31997871399e-05	1.16415321827e-10	6.04599654253e-06	0.344210416079	0.00167607318144	0.00167607318144	0.0		0.0	0.00167607318144	0	0	215	73	-538	5	13	-18	0	0	0	1	64428385	215	73	-538	5	13	-18	0	0	0	1	64428385	215	73	-538	5	13	-18	0	0	0	1	64428385	0.11	0.09	352.94	-0.0263886991888	0.0340139977634	-0.000487025943585	0.0	-0.0238123182207	0.0310237724334	-0.00167607318144	0.02	0.02	0.02	584.01	-1	0.0	0.0	0.0	0.0	0.0	222	46	-538	0	0	0	0	-0.02	0.03	0.0	-0.01	0.02	0.0	0	0	0	0.23	0.0	0.0	0.0	0.0	0.0	0.0	0.000113693437015	0	0	0	16	43839	0	0	0	0	0	0	0.17	0.17	0.0	0.0	0.5	0.000339905585861	0.000405643164413	0.000605045526754	0.11	0.09	352.95	-0.0262697320431	0.0341653302312	-0.000881176034454	0.0	-0.0238437019289	0.0309340860695	-0.00324373110197	0.02	0.02	0.03	584.09	-1	0.0	0.0	0.0	0.0	0.0	222	46	-538	0	0	0	0	-0.02	0.03	0.0	-0.01	0.02	0.0	0	0	0	0.23	0.0	0.0	0.0	0.0	0.0	0.0	0.000113937880087	0	0	0	16	43839	0	0	0.998106241226	0.00103984738234	0.000807552889455	-0.06150053069	0.998108506203	0.00104917224962	0.000805175688583	-0.0614626556635	-0.508821606636	0.0261764172465	-0.0012569174869	-0.448285251856	0.0300372485071	-0.00112658599392	0.000440944713773	0.024176960811	-6.47046763333e-05	0.0	-0.0661849975586	6.04599654253e-06	0.000873589888215	0.00101508118678	0.000839389627799	-0.00290779815987	-0.00166593852919	-9.81778430939	0	0	0.0	1	1	999	999	0.1	0.09	352.64	584.010009766	-35.3632621	149.1652374	0.997940182686	0.000995272537693	0.000767874356825	-0.0641387999058	0.00126338528935	1.82540388778e-05	0.00111160171218	1.68835922523e-05	6.78789219819e-05	2.0	0.2	0.2	0.04	1.0	64377.0	200.0	6.0	489758800.0	2152.0	10.0	1.21	-35.3632621	149.1652374	584.09	0.0	0.0	0.0	0.0	1.0	-35.3632623	149.1652377	584.010009766	0.00167607318144	0.00167607318144	-0.0441145785153	0.0567106045783	-0.0238123182207	0.0310237705708	0.0	0.0	-0.0263886991888	0.0340139977634	-0.0127528058365	0.0193268898875	-0.0145545406267	0.0213303864002	1500.0	1500.0	1000.0	1500.0	1800.0	1000.0	1000.0	1800.0	0.0	0.0	0.0	0.0	0.0	0.0	1075.0	1075.0	1075.0	1075.0	0.0	0.0	0.0	0.0	0.0	0.0	0.0	0.0	0.0	0.0	0.0	0.0	353.0	584.090026855	-35.3632621	149.1652374	0.998134791851	0.0	0.0	-0.0610485821962	0.00506331585348	0.00564966583624	0.00557031668723	0.0	0.0	0.0
